<?xml version="1.0"?>
<POIs>
  <POI>
    <Number>14757</Number>
    <Name>Forum Aveiro</Name>
    <Latitude>40.64106526</Latitude>
    <Longitude>-8.65198221</Longitude>
    <Longitude>-8.65198221</Longitude>
  </POI>
  <POI>
    <Number>14758</Number>
    <Name>Ria Aveiro</Name>
    <Latitude>40.64131723</Latitude>
    <Longitude>-8.65572806</Longitude>
    <Longitude>-8.65572806</Longitude>
  </POI>
  <POI>
    <Number>10827</Number>
    <Name>Costa Nova Beach</Name>
    <Latitude>40.617471</Latitude>
    <Longitude>-8.753421</Longitude>
    <Longitude>-8.753421</Longitude>
  </POI>
  <POI>
    <Number>4736</Number>
    <Name>Museu Histórico da Vista Alegre</Name>
    <Latitude>40.58954</Latitude>
    <Longitude>-8.6836962</Longitude>
    <Longitude>-8.6836962</Longitude>
  </POI>
  <POI>
    <Number>4734</Number>
    <Name>Ílhavo Maritime Museum and Aquarium of Cods</Name>
    <Latitude>40.6047311</Latitude>
    <Longitude>-8.6658865</Longitude>
    <Longitude>-8.6658865</Longitude>
  </POI>
  <POI>
    <Number>4733</Number>
    <Name>Museu de Aveiro - Santa Joana (Antigo Mosteiro de Jesus)</Name>
    <Latitude>40.6392143</Latitude>
    <Longitude>-8.6510349</Longitude>
    <Longitude>-8.6510349</Longitude>
  </POI>
  <POI>
    <Number>4654</Number>
    <Name>Parque Dom Pedro Infante - City Park</Name>
    <Latitude>40.6364238</Latitude>
    <Longitude>-8.6531216</Longitude>
    <Longitude>-8.6531216</Longitude>
  </POI>
</POIs>