<?xml version="1.0"?>
<POIs>
  <POI>
    <Number>14436</Number>
    <Name>Luís I Bridge</Name>
    <Latitude>41.1399589</Latitude>
    <Longitude>-8.6094485</Longitude>
    <Longitude>-8.6094485</Longitude>
  </POI>
  <POI>
    <Number>14336</Number>
    <Name>Jardins do Palácio de Cristal</Name>
    <Latitude>41.1483446</Latitude>
    <Longitude>-8.6254315</Longitude>
    <Longitude>-8.6254315</Longitude>
  </POI>
  <POI>
    <Number>14334</Number>
    <Name>Parque da Cidade do Porto</Name>
    <Latitude>41.1686739</Latitude>
    <Longitude>-8.6788358</Longitude>
    <Longitude>-8.6788358</Longitude>
  </POI>
  <POI>
    <Number>14382</Number>
    <Name>Guimarães Castle</Name>
    <Latitude>41.4478935</Latitude>
    <Longitude>-8.2903191</Longitude>
    <Longitude>-8.2903191</Longitude>
  </POI>
  <POI>
    <Number>14433</Number>
    <Name>Casa da Música</Name>
    <Latitude>41.158881</Latitude>
    <Longitude>-8.630696</Longitude>
    <Longitude>-8.630696</Longitude>
  </POI>
  <POI>
    <Number>14438</Number>
    <Name>Mercado do Bolhão</Name>
    <Latitude>41.1487167</Latitude>
    <Longitude>-8.6074698</Longitude>
    <Longitude>-8.6074698</Longitude>
  </POI>
  <POI>
    <Number>14354</Number>
    <Name>Clérigos Tower</Name>
    <Latitude>41.1456753</Latitude>
    <Longitude>-8.6145985</Longitude>
    <Longitude>-8.6145985</Longitude>
  </POI>
</POIs>